[
  {
    "id": 1,
    "name": "Lăng Chủ tịch Hồ Chí Minh",
    "city": "Hanoi",
    "category": "history",
    "lat": 21.0368,
    "lng": 105.8347,
    "price": 0,
    "time_visit": 90,
    "rating": 5.0,
    "open_time": 8,
    "close_time": 11
  },
  {
    "id": 2,
    "name": "Văn Miếu - Quốc Tử Giám",
    "city": "Hanoi",
    "category": "culture",
    "lat": 21.0293,
    "lng": 105.8356,
    "price": 30000,
    "time_visit": 60,
    "rating": 4.8,
    "open_time": 8,
    "close_time": 17
  },
  {
    "id": 3,
    "name": "Phở Gia Truyền Bát Đàn",
    "city": "Hanoi",
    "category": "food",
    "lat": 21.0325,
    "lng": 105.8473,
    "price": 60000,
    "time_visit": 45,
    "rating": 4.5,
    "open_time": 6,
    "close_time": 22
  },
  {
    "id": 4,
    "name": "Nhà Tù Hỏa Lò",
    "city": "Hanoi",
    "category": "history",
    "lat": 21.0253,
    "lng": 105.8463,
    "price": 30000,
    "time_visit": 90,
    "rating": 4.7,
    "open_time": 8,
    "close_time": 17
  },
  {
    "id": 5,
    "name": "Hồ Hoàn Kiếm",
    "city": "Hanoi",
    "category": "nature",
    "lat": 21.0285,
    "lng": 105.8542,
    "price": 0,
    "time_visit": 60,
    "rating": 4.9,
    "open_time": 0,
    "close_time": 24
  },
  {
    "id": 6,
    "name": "Chùa Một Cột",
    "city": "Hanoi",
    "category": "culture",
    "lat": 21.0355,
    "lng": 105.8336,
    "price": 0,
    "time_visit": 30,
    "rating": 4.6,
    "open_time": 7,
    "close_time": 18
  },
  {
    "id": 7,
    "name": "Hồ Tây",
    "city": "Hanoi",
    "category": "nature",
    "lat": 21.0553,
    "lng": 105.8191,
    "price": 0,
    "time_visit": 120,
    "rating": 4.7,
    "open_time": 0,
    "close_time": 24
  },
  {
    "id": 8,
    "name": "Bún Chả Hàng Mành",
    "city": "Hanoi",
    "category": "food",
    "lat": 21.0312,
    "lng": 105.852,
    "price": 50000,
    "time_visit": 45,
    "rating": 4.7,
    "open_time": 10,
    "close_time": 21
  },
  {
    "id": 9,
    "name": "Cầu Long Biên",
    "city": "Hanoi",
    "category": "history",
    "lat": 21.0454,
    "lng": 105.8607,
    "price": 0,
    "time_visit": 45,
    "rating": 4.5,
    "open_time": 0,
    "close_time": 24
  },
  {
    "id": 10,
    "name": "Phố Cổ Hà Nội",
    "city": "Hanoi",
    "category": "culture",
    "lat": 21.0341,
    "lng": 105.8518,
    "price": 0,
    "time_visit": 120,
    "rating": 4.8,
    "open_time": 0,
    "close_time": 24
  },
  {
    "id": 11,
    "name": "Cafe Giảng (Trứng cà phê)",
    "city": "Hanoi",
    "category": "food",
    "lat": 21.0297,
    "lng": 105.8526,
    "price": 35000,
    "time_visit": 30,
    "rating": 4.6,
    "open_time": 7,
    "close_time": 22
  },
  {
    "id": 12,
    "name": "Chợ Đồng Xuân",
    "city": "Hanoi",
    "category": "culture",
    "lat": 21.0366,
    "lng": 105.8483,
    "price": 0,
    "time_visit": 60,
    "rating": 4.3,
    "open_time": 7,
    "close_time": 19
  },
  {
    "id": 13,
    "name": "Bãi biển Mỹ Khê",
    "city": "Danang",
    "category": "beach",
    "lat": 16.0399,
    "lng": 108.2411,
    "price": 0,
    "time_visit": 180,
    "rating": 4.8,
    "open_time": 0,
    "close_time": 24
  },
  {
    "id": 14,
    "name": "Bà Nà Hills",
    "city": "Danang",
    "category": "entertainment",
    "lat": 15.9965,
    "lng": 107.9943,
    "price": 800000,
    "time_visit": 360,
    "rating": 4.7,
    "open_time": 7,
    "close_time": 22
  },
  {
    "id": 15,
    "name": "Cầu Vàng",
    "city": "Danang",
    "category": "entertainment",
    "lat": 15.9965,
    "lng": 107.9951,
    "price": 0,
    "time_visit": 45,
    "rating": 4.9,
    "open_time": 7,
    "close_time": 22
  },
  {
    "id": 16,
    "name": "Ngũ Hành Sơn",
    "city": "Danang",
    "category": "nature",
    "lat": 16.0023,
    "lng": 108.2625,
    "price": 40000,
    "time_visit": 120,
    "rating": 4.7,
    "open_time": 7,
    "close_time": 17
  },
  {
    "id": 17,
    "name": "Bảo Tàng Điêu Khắc Chăm",
    "city": "Danang",
    "category": "culture",
    "lat": 16.0592,
    "lng": 108.2223,
    "price": 60000,
    "time_visit": 90,
    "rating": 4.5,
    "open_time": 7,
    "close_time": 17
  },
  {
    "id": 18,
    "name": "Hải Sản Bé Mặn",
    "city": "Danang",
    "category": "food",
    "lat": 16.0544,
    "lng": 108.2272,
    "price": 350000,
    "time_visit": 60,
    "rating": 4.6,
    "open_time": 10,
    "close_time": 22
  },
  {
    "id": 19,
    "name": "Chợ Hàn",
    "city": "Danang",
    "category": "culture",
    "lat": 16.0685,
    "lng": 108.223,
    "price": 0,
    "time_visit": 60,
    "rating": 4.4,
    "open_time": 6,
    "close_time": 19
  },
  {
    "id": 20,
    "name": "Bãi biển Non Nước",
    "city": "Danang",
    "category": "beach",
    "lat": 16.0064,
    "lng": 108.2635,
    "price": 0,
    "time_visit": 150,
    "rating": 4.7,
    "open_time": 0,
    "close_time": 24
  },
  {
    "id": 21,
    "name": "Sơn Trà - Chùa Linh Ứng",
    "city": "Danang",
    "category": "culture",
    "lat": 16.1088,
    "lng": 108.2704,
    "price": 0,
    "time_visit": 120,
    "rating": 4.8,
    "open_time": 6,
    "close_time": 18
  },
  {
    "id": 22,
    "name": "Phố Cổ Hội An",
    "city": "Danang",
    "category": "culture",
    "lat": 15.8791,
    "lng": 108.335,
    "price": 120000,
    "time_visit": 240,
    "rating": 4.9,
    "open_time": 0,
    "close_time": 24
  },
  {
    "id": 23,
    "name": "Mì Quảng Bà Mua",
    "city": "Danang",
    "category": "food",
    "lat": 16.0643,
    "lng": 108.2127,
    "price": 40000,
    "time_visit": 45,
    "rating": 4.6,
    "open_time": 6,
    "close_time": 21
  }
]
